lon,lat,ve,vn,ee,en,site,yrs,t_start_end,network
28.6419,44.0865,-0.2,-0.1,0.16,0.16,AGIG,6.06,2013.45-2019.51,NIEP
21.409,38.624,-11.11,-7.0,0.2,0.2,AGRI,8.38,2010.74-2019.12,METRICA
27.2488,42.6996,-0.1,-0.8,0.16,0.21,AITO,10.29,2009.22-2019.51,BULGARIA
16.4559,39.9458,0.5,4.1,0.35,0.66,ALBI,5.66,2012.36-2018.02,RING
25.8535,40.8492,-0.1,-1.74,0.17,0.38,ALE1,7.85,2011.67-2019.53,BULGARIA
16.5586,40.8228,1.3,4.3,0.15,0.15,ALTA,8.09,2011.41-2019.50,ITALPOS
16.604,40.9073,1.1,4.4,0.09,0.1,AMUR,13.9,2005.61-2019.51,RING
23.9041,37.7334,-16.71,-25.92,0.18,0.16,ANAV,12.47,2007.05-2019.52,METRICA
24.7371,37.8864,-16.81,-26.27,0.31,0.5,ANDR,8.45,2011.07-2019.52,METRICA
21.9251,38.5945,-10.45,-10.21,0.56,0.69,ANOC,3.27,2015.74-2019.00,CRL
25.2689,35.134,-15.61,-27.22,0.38,0.32,ARKL,4.77,2014.75-2019.52,METRICA
21.8167,38.3011,-15.85,-19.22,0.34,0.36,ARSA,5.07,2014.44-2019.51,CRL
20.9917,39.1588,-6.4,-4.93,0.27,0.24,ARTA,6.26,2013.25-2019.52,METRICA
58.5605,56.4298,-0.6,-0.2,0.15,0.12,ARTU,19.51,2000.00-2019.51,IGS
20.5417,38.3778,-6.22,-10.51,0.42,0.75,ASSO,3.57,2015.94-2019.51,CRL
26.3533,36.5451,-15.31,-29.22,0.25,0.31,ASTY,5.6,2013.92-2019.52,METRICA
22.9994,38.6531,-11.71,-19.79,0.21,0.27,ATAL,8.61,2009.23-2017.85,NOA
22.8349,37.2444,-17.6,-27.54,0.35,0.25,ATRS,4.12,2012.00-2016.12,NOA
23.0037,40.5668,1.6,-6.91,0.14,0.17,AUT1,14.26,2005.25-2019.51,EUREF
17.7325,40.3418,1.0,4.2,0.21,0.28,AVET,7.24,2012.05-2019.29,NETGEO
28.7351,44.884,0.1,-0.4,0.2,0.18,BABA,6.06,2013.45-2019.51,NIEP
20.0722,42.3636,-0.3,1.2,0.77,0.81,BACU,4.34,2015.17-2019.51,ALBANIA
19.5706,43.9685,1.0,1.0,0.18,0.22,BAJI,9.42,2008.28-2017.70,AGROS
20.0741,42.3577,0.07,0.47,0.41,0.33,BAJR,9.69,2009.74-2019.43,ALBPOS
19.1002,42.1025,-0.4,0.9,0.17,0.19,BAR1,9.01,2008.00-2017.01,MONTENEGRO
21.079,44.1527,0.7,-0.9,0.26,0.19,BATO,10.21,2009.28-2019.50,AGROS
25.1247,43.6481,-0.2,-1.2,0.16,0.18,BELE,4.81,2014.59-2019.40,BULGARIA
22.68,43.6256,-0.2,-1.1,0.18,0.21,BELO,4.91,2014.60-2019.51,BULGARIA
20.4766,44.8055,0.7,0.0,0.15,0.14,BEOG,8.92,2008.28-2017.20,AGROS
19.9563,40.7029,-0.7,-0.1,0.17,0.19,BER1,9.8,2009.63-2019.43,ALBPOS
19.9455,40.7082,-0.9,-0.2,0.18,0.18,BERA,13.72,2005.79-2019.51,ALBANIA
22.853,41.7054,0.5,-3.8,0.17,0.15,BERO,9.69,2009.54-2019.23,MAKPOS
25.672,43.4687,0.2,-1.2,0.14,0.16,BIAR,10.07,2009.44-2019.51,BULGARIA
17.4286,50.2567,0.0,-0.1,0.1,0.14,BISK,14.3,2005.21-2019.51,EUREF
21.3355,41.0241,1.3,-3.7,0.19,0.22,BITO,9.83,2009.40-2019.23,MAKPOS
23.0887,41.9902,0.8,-2.6,0.16,0.18,BLAG,6.88,2012.63-2019.51,BULGARIA
23.0076,42.3671,0.3,-2.0,0.21,0.26,BOBO,5.05,2007.49-2012.54,BULGARIA
21.0353,52.4759,-0.3,0.1,0.07,0.08,BOGO,19.51,2000.00-2019.51,EUREF
22.0976,44.0789,1.11,-0.2,0.13,0.17,BOR0,11.12,2008.29-2019.41,AGROS
17.0735,52.277,0.0,-0.1,0.06,0.08,BOR1,19.51,2000.00-2019.51,EUREF
22.4717,42.5008,0.9,-2.8,0.17,0.18,BOSI,9.72,2009.77-2019.50,AGROS
26.1257,44.4639,-0.3,-1.1,0.08,0.1,BUCU,19.51,2000.00-2019.51,EUREF
21.7662,42.4596,0.7,-2.3,0.11,0.14,BUJA,11.21,2008.28-2019.50,AGROS
27.4683,42.5004,0.0,-0.7,0.18,0.2,BUR1,6.2,2013.01-2019.21,BULGARIA
27.4778,42.4959,-0.3,-0.8,0.29,0.25,BURG,4.34,2009.86-2014.20,OLG
16.2737,41.0776,1.2,4.4,0.13,0.13,CADM,13.6,2000.51-2014.11,RING
16.4492,39.3402,1.4,3.5,0.23,0.21,CAMO,8.0,2006.87-2014.87,UNAVCO
18.3473,39.8333,0.8,4.1,0.17,0.19,CASR,7.46,2012.05-2019.51,NETGEO
16.6203,38.8272,1.5,3.1,0.44,0.44,CATZ,3.76,2013.20-2016.96,NETGEO
16.7756,39.2262,2.0,3.4,0.3,0.23,CCRI,5.29,2006.91-2012.20,UNAVCO
16.5088,39.4027,1.4,3.4,0.2,0.16,CELI,7.71,2011.80-2019.51,RING
24.0809,43.2801,0.04,-1.1,0.22,0.21,CHER,4.91,2014.59-2019.51,BULGARIA
26.1272,38.3679,-19.81,-23.22,0.29,0.31,CHIO,5.6,2013.92-2019.52,METRICA
28.8385,44.4941,-0.5,-0.2,0.2,0.17,CHIT,6.12,2013.39-2019.51,NIEP
17.1323,39.3756,2.39,3.78,0.25,0.16,CIRO,5.78,2009.74-2015.52,CALABRIA
31.3136,51.5189,-0.5,0.39,0.15,0.18,CNIV,12.9,2006.61-2019.51,EUREF
16.4222,40.1934,0.8,4.5,0.2,0.17,COLR,6.83,2011.70-2018.52,RING
16.57,38.8567,2.0,3.7,0.33,0.35,COMA,5.09,2012.20-2017.29,CALABRIA
28.6453,44.2138,0.8,-0.4,0.24,0.28,CONB,3.03,2016.48-2019.51,NIEP
16.557,39.621,2.6,4.7,0.26,0.31,CORC,3.33,2015.69-2019.02,ITALPOS
28.6575,44.1615,-0.4,-0.5,0.11,0.1,COST,13.51,2006.00-2019.51,EUREF
16.4352,40.3814,1.1,4.4,0.11,0.12,CRAC,13.56,2005.95-2019.51,RING
23.7646,44.338,-0.11,-0.9,0.17,0.2,CRAI,9.92,2005.82-2015.74,OLG
17.2325,40.6046,0.7,4.8,0.18,0.27,CRIS,7.45,2012.05-2019.50,NETGEO
16.5473,39.2784,1.0,3.3,0.27,0.34,CRLM,5.34,2006.86-2012.20,UNAVCO
17.1143,39.0689,4.0,3.7,0.18,0.2,CROT,6.18,2012.05-2018.23,NETGEO
16.9863,39.0325,2.5,3.1,0.21,0.23,CUT1,5.35,2014.16-2019.50,ITALPOS
20.5283,41.5215,0.4,-0.9,0.21,0.23,DEBA,9.51,2009.71-2019.23,MAKPOS
4.3876,51.9861,-0.1,-0.1,0.1,0.15,DELF,19.51,2000.00-2019.51,EUREF
6.6997,49.3716,0.2,-0.1,0.12,0.12,DILL,10.75,2005.57-2016.32,GREF
22.7781,43.016,0.39,-1.4,0.12,0.19,DIMI,11.21,2008.28-2019.50,AGROS
27.838,43.5585,0.1,-0.4,0.13,0.15,DOBR,9.69,2009.82-2019.51,BULGARIA
4.595,50.0949,0.2,0.0,0.09,0.12,DOUR,19.51,2000.00-2019.51,EUREF
20.6545,42.0622,0.49,-0.9,0.21,0.2,DRA2,6.51,2013.00-2019.50,KOPOS
22.9335,42.9318,-0.1,-2.6,0.37,0.51,DRAN,12.02,2007.49-2019.51,BULGARIA
19.1842,42.1867,0.0,1.6,0.17,0.16,DRME,10.22,2009.27-2019.49,MONTENEGRO
18.1103,42.6502,1.4,3.8,0.22,0.28,DUB2,7.54,2011.97-2019.51,EUREF
18.1104,42.65,0.6,3.6,0.38,0.43,DUBR,12.01,2000.73-2012.74,EUREF
19.451,41.3155,-0.1,1.6,0.25,0.3,DUR2,4.21,2015.22-2019.43,ALBPOS
24.9168,41.1402,0.4,-2.7,0.19,0.27,DUTH,10.81,2008.70-2019.51,EUREF
23.9324,38.0786,-16.31,-26.02,0.27,0.34,DYNG,8.11,2011.40-2019.51,EUREF
22.0512,40.8043,2.0,-7.71,0.21,0.22,EDES,8.3,2011.22-2019.52,METRICA
6.8819,50.5253,0.2,0.1,0.12,0.1,EFBG,17.14,2002.37-2019.51,GREF
5.6836,50.7582,-0.2,0.2,0.09,0.12,EIJS,19.51,2000.00-2019.51,EUREF
25.9004,42.9305,-0.2,-0.5,0.17,0.25,ELEN,5.36,2014.15-2019.51,BULGARIA
26.5832,42.177,-1.3,-0.7,0.3,0.32,ELH1,6.86,2012.65-2019.51,BULGARIA
0.9757,42.6936,0.2,0.2,0.1,0.12,ESCO,19.5,2000.01-2019.51,EUREF
20.6186,38.754,-6.13,-9.85,0.9,0.59,EXAN,3.61,2015.90-2019.50,CRL
21.9284,38.4268,-12.91,-12.21,0.14,0.17,EYPA,17.72,2001.79-2019.51,CRL
17.359,40.8348,1.1,4.3,0.12,0.11,FASA,12.29,2007.22-2019.51,PUGLIA
16.4548,40.5087,0.8,5.2,0.18,0.34,FENA,7.46,2012.05-2019.51,NETGEO
20.5771,38.4597,-7.11,-12.21,0.37,0.75,FISK,3.61,2015.90-2019.51,CRL
21.4017,40.7799,0.94,-4.7,0.33,0.33,FLOR,5.25,2014.26-2019.52,METRICA
25.3152,42.889,0.1,-1.3,0.14,0.19,GABR,10.07,2009.44-2019.51,BULGARIA
20.571,39.3506,-2.92,-0.2,0.41,0.58,GARD,3.61,2015.55-2019.17,URANUS
23.7342,41.5661,1.0,-3.5,0.29,0.47,GDE1,5.47,2014.04-2019.51,BULGARIA
21.7664,38.3341,-12.49,-12.41,0.19,0.26,GEYB,7.77,2011.74-2019.51,CRL
16.7578,40.578,1.5,4.1,0.12,0.12,GINO,12.29,2007.22-2019.51,PUGLIA
18.43,40.1244,1.0,3.9,0.09,0.09,GIUR,12.29,2007.22-2019.51,PUGLIA
20.4602,44.0246,0.7,-0.2,0.19,0.18,GMIL,9.39,2010.11-2019.50,AGROS
19.2128,42.5675,0.1,1.6,0.14,0.21,GMME,10.66,2008.83-2019.49,MONTENEGRO
28.9872,44.6753,0.81,0.3,0.29,0.26,GPOR,6.14,2013.37-2019.51,NIEP
20.1846,40.8688,-1.26,-0.9,0.29,0.28,GRA2,4.21,2015.22-2019.43,ALBPOS
21.4381,40.0847,0.36,-4.8,0.17,0.2,GREV,5.56,2013.96-2019.52,METRICA
20.7525,44.6423,0.3,-0.2,0.19,0.28,GROC,11.21,2008.28-2019.50,AGROS
23.6025,38.4654,-14.01,-23.52,0.19,0.22,HALK,8.83,2010.68-2019.52,METRICA
25.9165,41.9235,0.2,-0.4,0.21,0.23,HARM,8.69,2010.82-2019.51,BULGARIA
25.1415,35.3241,-16.41,-27.12,0.17,0.24,HERA,8.83,2010.68-2019.51,METRICA
19.7582,40.0889,-1.4,1.9,0.45,0.59,HIMA,4.54,2014.97-2019.51,ALBANIA
28.7702,44.5471,-0.5,-0.4,0.14,0.17,HIST,5.93,2013.58-2019.51,NIEP
25.5617,41.931,0.0,-1.0,0.16,0.2,HSKO,4.91,2014.59-2019.51,BULGARIA
25.7972,35.0531,-16.58,-27.62,0.4,0.33,IERA,9.02,2010.49-2019.52,METRICA
20.2627,39.51,-2.77,0.28,0.28,0.23,IGOU,5.56,2013.96-2019.52,METRICA
20.8505,39.6641,-1.8,-3.3,0.31,0.3,IOAN,8.54,2010.97-2019.52,METRICA
26.8309,43.7214,0.0,-0.3,0.21,0.2,ISPE,4.77,2014.73-2019.51,BULGARIA
29.0193,41.1044,-0.1,-1.9,0.14,0.13,ISTA,19.51,2000.00-2019.51,EUREF
23.1519,38.956,-8.81,-16.51,0.17,0.21,ISTI,5.56,2013.96-2019.52,METRICA
22.4302,38.431,-13.61,-16.81,0.25,0.21,ITEA,7.51,2012.00-2019.52,METRICA
20.2302,43.581,1.1,0.0,0.12,0.15,IVAN,11.21,2008.28-2019.50,AGROS
21.0315,52.0973,0.0,0.1,0.1,0.11,JOZE,19.51,2000.00-2019.51,EUREF
22.8569,40.6419,2.1,-8.21,0.37,0.33,KAL1,3.94,2013.89-2017.83,METRICA
22.8485,40.6428,0.3,-7.91,0.44,0.26,KAL2,3.93,2013.90-2017.83,METRICA
22.1114,37.0337,-19.91,-26.64,0.19,0.21,KALM,8.68,2010.84-2019.52,METRICA
26.9761,36.9558,-16.31,-26.42,0.26,0.35,KALY,6.45,2013.06-2019.52,METRICA
21.5786,42.5813,1.6,-2.2,0.18,0.18,KAME,6.51,2013.00-2019.51,KOPOS
25.3846,41.6467,-1.2,-1.9,0.17,0.2,KAR2,9.33,2010.18-2019.51,BULGARIA
8.4113,49.0112,0.3,0.2,0.1,0.12,KARL,19.51,2000.00-2019.51,EUREF
21.8029,38.9119,-8.19,-9.21,0.33,0.32,KARP,8.07,2011.45-2019.52,METRICA
19.9355,39.7464,-3.4,0.0,0.18,0.18,KASI,10.1,2007.25-2017.34,NOA
21.2632,40.5231,0.9,-3.7,0.24,0.19,KAST,7.84,2011.67-2019.52,METRICA
22.5213,40.2701,1.0,-8.21,0.15,0.18,KATE,9.59,2009.92-2019.52,METRICA
28.3508,43.4389,-0.6,-0.5,0.29,0.27,KAV0,4.86,2014.60-2019.46,BULGARIA
28.3374,43.4334,0.1,-0.5,0.22,0.26,KAV2,6.46,2013.01-2019.47,BULGARIA
24.3873,40.9338,0.6,-3.9,0.14,0.2,KAVA,8.83,2010.69-2019.52,METRICA
19.8734,39.4937,-2.2,0.7,0.27,0.3,KERK,3.69,2015.94-2019.62,METRICA
20.9595,41.509,1.9,-3.0,0.2,0.16,KICE,10.23,2009.00-2019.23,MAKPOS
20.3483,38.2032,-5.1,-4.31,0.46,0.33,KIPO,7.96,2010.68-2018.64,NOA
22.6129,44.6104,0.1,-1.4,0.13,0.13,KLAD,11.21,2008.28-2019.50,AGROS
22.0144,39.5647,-2.8,-8.31,0.14,0.12,KLOK,10.97,2008.54-2019.51,NOA
22.2553,43.5665,0.5,-1.4,0.14,0.16,KNJA,11.21,2008.28-2019.50,AGROS
21.8182,37.2895,-20.31,-26.62,0.26,0.26,KOPA,5.18,2014.33-2019.52,METRICA
20.7728,40.624,-1.0,-1.9,0.38,0.3,KOR2,4.21,2015.22-2019.43,ALBPOS
22.9309,37.9416,-16.33,-26.22,0.14,0.15,KORI,10.94,2008.58-2019.52,METRICA
22.0458,38.2095,-14.31,-25.32,0.17,0.2,KOUN,17.12,2002.39-2019.51,CRL
21.9226,39.3665,-4.5,-8.41,0.18,0.19,KRDI,5.56,2013.96-2019.52,METRICA
17.125,39.0799,6.1,3.6,0.14,0.17,KROT,9.05,2006.87-2015.92,UNAVCO
22.3359,42.2064,0.6,-2.4,0.14,0.16,KRPA,9.7,2009.53-2019.23,MAKPOS
27.1611,35.5471,-13.21,-30.52,0.57,0.49,KRPS,3.21,2012.62-2015.83,NOA
25.6519,41.4735,0.1,-1.1,0.23,0.23,KRUM,4.91,2014.59-2019.51,BULGARIA
21.3286,43.5805,0.99,-1.1,0.16,0.16,KRUS,11.21,2008.28-2019.50,AGROS
22.6179,37.9723,-16.31,-26.74,0.17,0.17,KRYO,10.49,2006.00-2016.50,NOA
20.4169,42.0771,0.96,-0.68,0.35,0.26,KUKE,9.52,2009.91-2019.43,ALBPOS
21.7175,42.1364,0.97,-2.3,0.14,0.16,KUMA,9.68,2009.55-2019.23,MAKPOS
21.2715,43.1376,0.9,-0.9,0.13,0.16,KURS,11.21,2008.28-2019.50,AGROS
22.7131,42.2837,0.73,-2.2,0.13,0.14,KUST,12.02,2007.49-2019.51,BULGARIA
24.1052,38.6349,-14.61,-24.52,0.39,0.37,KYMI,4.67,2014.84-2019.52,METRICA
20.6699,53.8924,-0.1,0.0,0.07,0.1,LAMA,19.51,2000.00-2019.51,EUREF
21.9731,38.3204,-12.61,-20.64,0.26,0.36,LAMB,9.95,2009.56-2019.51,CRL
22.4322,38.8982,-9.11,-12.71,0.33,0.34,LAMM,7.51,2012.00-2019.52,METRICA
22.3879,39.6141,-2.5,-9.41,0.14,0.14,LARM,8.46,2011.05-2019.51,EUREF
25.1806,39.8972,-16.03,-14.51,0.18,0.27,LEMN,11.99,2007.52-2019.51,NOA
20.5989,40.1499,-1.02,-1.21,0.29,0.32,LES1,3.2,2015.16-2018.35,ALBANIA
21.9479,42.9976,0.7,-1.7,0.12,0.12,LESK,11.04,2008.45-2019.50,AGROS
26.5538,39.1001,-19.11,-12.81,0.43,0.43,LESV,4.75,2014.76-2019.52,METRICA
20.7121,38.8345,-3.77,-14.01,0.41,0.5,LFKD,4.5,2015.01-2019.52,METRICA
20.3144,41.1793,-1.1,-0.8,0.38,0.27,LIBR,9.8,2009.63-2019.43,ALBPOS
22.201,38.529,-12.21,-13.84,0.23,0.17,LIDO,17.73,2001.78-2019.51,CRL
24.7084,43.1367,0.5,-1.2,0.15,0.17,LOVE,7.93,2009.84-2017.77,OLG
19.2245,44.5352,1.2,1.0,0.26,0.24,LOZN,11.21,2008.28-2019.50,AGROS
358.7807,46.1589,0.2,0.2,0.09,0.08,LROC,17.62,2001.89-2019.51,EUREF
19.7068,40.9451,-1.16,1.36,0.28,0.23,LUS2,4.21,2015.22-2019.43,ALBPOS
23.0377,37.6125,-17.21,-26.92,0.28,0.28,LYGO,4.75,2014.77-2019.52,METRICA
26.0277,44.3478,-1.1,-0.7,0.23,0.21,MAGU,6.37,2012.43-2018.81,NIEP
20.6978,40.7075,-0.2,-3.06,0.53,0.43,MAL3,11.95,2007.56-2019.51,ALBANIA
12.8935,50.3569,-0.1,0.0,0.1,0.14,MARJ,10.46,2005.21-2015.67,EUREF
16.5864,40.6785,0.9,4.7,0.15,0.23,MATA,7.46,2012.05-2019.51,NETGEO
16.7045,40.6491,0.9,4.5,0.08,0.12,MATE,19.5,2000.01-2019.51,EUREF
16.7046,40.649,1.1,4.6,0.14,0.26,MATG,7.42,2012.08-2019.51,EUREF
17.0271,39.3094,1.38,3.5,0.25,0.29,MEL1,3.99,2015.52-2019.50,ITALPOS
18.3346,40.2779,1.1,3.9,0.21,0.21,MELE,3.01,2016.49-2019.50,ITALPOS
21.4749,38.3664,-10.69,-12.61,0.35,0.4,MESO,4.19,2015.32-2019.51,CRL
23.7623,38.0653,-16.21,-25.71,0.15,0.17,MET0,12.5,2007.01-2019.52,METRICA
28.6829,44.3462,-0.2,-0.3,0.2,0.18,MIDI,6.12,2013.39-2019.51,NIEP
24.4313,36.7422,-17.21,-26.82,0.17,0.2,MIL2,7.84,2011.67-2019.52,METRICA
23.9937,42.6884,0.2,-1.9,0.27,0.31,MIRK,3.15,2014.59-2017.74,BULGARIA
20.8658,42.8888,0.8,-1.3,0.2,0.18,MITR,6.51,2013.00-2019.50,KOPOS
16.6042,41.1956,1.1,3.9,0.14,0.15,MLFT,8.44,2011.07-2019.50,ITALPOS
16.7864,40.3897,0.8,4.1,0.09,0.1,MMET,15.12,2004.39-2019.51,GEODAF
28.5586,43.8106,-0.66,-0.3,0.28,0.16,MNGA,4.84,2013.38-2018.22,NIEP
16.6873,40.3649,0.5,4.1,0.24,0.27,MNIA,4.46,2012.51-2016.97,ITALPOS
24.8777,35.0539,-16.17,-27.42,0.29,0.27,MOIR,5.6,2013.92-2019.52,METRICA
19.5811,42.9604,0.8,0.8,0.15,0.24,MOJK,9.62,2009.88-2019.49,MONTENEGRO
22.8508,36.8056,-17.91,-27.62,0.26,0.2,MOLA,8.66,2010.85-2019.51,METRICA
16.5851,41.1844,0.7,4.83,0.21,0.25,MOLF,7.46,2012.05-2019.51,NETGEO
23.2251,43.4156,0.9,-1.8,0.3,0.17,MONT,7.93,2009.83-2017.77,OLG
16.5744,38.439,2.0,3.0,0.25,0.3,MOST,6.52,2009.63-2016.16,CALABRIA
25.3812,37.0982,-17.61,-26.22,0.2,0.22,NAXO,8.06,2011.46-2019.52,METRICA
23.0603,36.5092,-17.41,-27.22,0.35,0.24,NEAB,7.02,2012.49-2019.51,NOA
22.089,41.4837,1.3,-3.2,0.16,0.2,NEG1,9.66,2009.57-2019.23,MAKPOS
22.5303,44.2262,0.4,-1.8,0.14,0.13,NEGO,11.21,2008.28-2019.50,AGROS
18.9499,42.7758,0.6,1.57,0.19,0.19,NIKS,8.93,2008.00-2016.93,MONTENEGRO
23.864,38.0471,-16.31,-25.42,0.2,0.28,NOA1,13.28,2006.23-2019.51,EUREF
17.0644,40.7888,1.0,4.2,0.12,0.1,NOCI,13.94,2005.57-2019.51,RING
20.5193,43.1396,1.1,-0.5,0.11,0.14,NPAZ,11.21,2008.28-2019.50,AGROS
2.3349,48.8359,0.2,-0.1,0.07,0.07,OPMT,17.46,2002.05-2019.51,IGS
26.5458,41.4142,0.2,-1.2,0.18,0.2,ORES,4.53,2014.73-2019.27,BULGARIA
23.9617,43.7345,-0.9,-1.1,0.18,0.16,ORIA,9.14,2010.37-2019.51,BULGARIA
20.7941,41.1273,0.9,-2.6,0.12,0.11,ORID,18.96,2000.55-2019.51,EUREF
23.6407,35.2394,-16.81,-25.22,0.42,0.6,PALC,5.19,2013.96-2019.14,METRICA
24.1743,42.5136,-0.1,-1.57,0.27,0.23,PANG,5.29,2014.22-2019.51,BULGARIA
21.7867,38.2837,-16.51,-20.82,0.22,0.24,PAT0,10.44,2009.07-2019.51,EUREF
21.733,38.2409,-15.61,-21.69,0.19,0.24,PATR,8.47,2011.05-2019.52,METRICA
18.3422,39.8386,0.7,3.8,0.26,0.26,PATU,3.01,2016.49-2019.50,ITALPOS
20.1639,39.2108,-0.22,3.5,0.28,0.33,PAXO,5.56,2013.96-2019.52,METRICA
24.34,42.231,0.34,-1.5,0.19,0.2,PAZA,12.02,2007.49-2019.51,BULGARIA
20.2885,42.6615,0.9,0.1,0.24,0.22,PEJA,6.51,2013.00-2019.51,KOPOS
29.2745,44.801,-0.5,0.0,0.25,0.23,PER1,6.14,2013.37-2019.51,NIEP
20.3531,40.2331,-1.8,-1.2,0.19,0.38,PERM,8.8,2009.63-2018.43,ALBPOS
23.0378,42.6133,-1.0,-2.1,0.49,0.48,PERN,6.88,2012.63-2019.51,BULGARIA
20.4263,41.6853,0.2,-1.74,0.17,0.2,PES3,9.09,2009.91-2019.00,ALBPOS
20.4398,41.6848,-0.4,-2.53,0.18,0.26,PESH,15.51,2004.00-2019.51,ALBANIA
16.8158,39.4851,1.6,3.6,0.12,0.13,PIPA,12.22,2007.29-2019.51,RING
23.4253,42.4766,0.6,-1.5,0.67,0.52,PLA1,9.67,2009.84-2019.51,BULGARIA
16.4383,38.4494,1.6,2.9,0.17,0.14,PLAC,13.8,2005.71-2019.51,RING
19.9444,42.597,0.5,0.2,0.24,0.19,PLAV,11.49,2008.00-2019.49,MONTENEGRO
24.6215,43.4166,-0.1,-0.8,0.17,0.15,PLEV,9.13,2010.37-2019.50,BULGARIA
19.3568,43.3568,1.1,0.9,0.13,0.16,PLJE,11.49,2008.00-2019.49,MONTENEGRO
19.2524,42.4446,0.2,1.1,0.16,0.32,POD1,8.21,2008.00-2016.21,MONTENEGRO
16.2538,40.9166,1.0,4.2,0.12,0.14,POGG,12.12,2007.39-2019.51,PUGLIA
20.5852,38.619,-3.9,-7.2,0.34,0.28,PONT,12.39,2007.12-2019.51,NOA
26.2223,43.3484,-0.4,-0.8,0.21,0.31,POPO,4.57,2014.93-2019.51,BULGARIA
13.0661,52.3793,-0.1,-0.1,0.08,0.11,POTS,19.51,2000.00-2019.51,EUREF
19.6425,43.3855,0.4,0.7,0.13,0.16,PRIJ,11.19,2008.31-2019.50,AGROS
21.5596,41.3436,1.5,-3.4,0.16,0.15,PRIL,10.14,2009.09-2019.23,MAKPOS
27.7531,42.2664,0.1,-1.0,0.12,0.16,PRIM,11.28,2008.23-2019.51,BULGARIA
21.1918,42.6702,0.6,-1.5,0.18,0.18,PRIS,6.51,2013.00-2019.51,KOPOS
26.265,39.2457,-19.51,-13.71,0.16,0.21,PRKV,12.02,2007.49-2019.51,NOA
23.387,41.0684,0.8,-4.9,0.18,0.19,PROW,4.91,2014.59-2019.51,BULGARIA
22.1843,38.3217,-15.31,-15.73,0.18,0.15,PSAR,17.73,2001.78-2019.51,CRL
21.8714,38.3287,-14.61,-16.68,0.74,0.99,PSAT,5.03,2014.45-2019.49,CRL
10.4597,52.2962,0.1,0.2,0.07,0.09,PTBB,19.27,2000.24-2019.51,EUREF
21.6781,40.5114,1.1,-5.8,0.18,0.16,PTOL,7.84,2011.67-2019.52,METRICA
21.742,36.8955,-25.22,-30.52,1.0,0.67,PYL1,5.07,2007.47-2012.54,CRL
21.6953,36.9142,-21.61,-27.12,0.2,0.2,PYLO,7.87,2011.64-2019.51,NOA
21.4622,37.6788,-18.51,-26.52,0.15,0.17,PYRG,8.29,2011.23-2019.52,METRICA
20.6573,42.3974,0.1,-2.5,0.37,0.31,RAHO,6.51,2013.00-2019.51,KOPOS
24.9462,42.279,0.9,-1.6,0.22,0.22,RAKO,4.89,2008.04-2012.93,BULGARIA
23.4716,41.8892,0.5,-3.0,0.23,0.3,RAZ1,4.82,2014.69-2019.51,BULGARIA
24.6131,35.3878,-16.81,-26.62,0.21,0.27,RETH,8.07,2011.45-2019.52,METRICA
24.3578,42.8445,0.3,-1.2,0.12,0.14,RIBA,10.3,2007.49-2017.80,BULGARIA
21.4647,38.0558,-13.97,-22.82,0.21,0.16,RLSO,10.32,2009.19-2019.51,NOA
21.8923,38.308,-13.51,-23.41,0.98,0.94,ROD3,5.31,2014.20-2019.51,CRL
28.1617,36.2926,-10.21,-25.52,0.21,0.27,RODO,8.19,2011.32-2019.52,METRICA
16.6357,39.6004,1.4,4.1,0.25,0.33,ROSC,6.78,2012.73-2019.51,NETGEO
16.6405,39.5998,2.08,4.36,0.23,0.21,ROSS,7.66,2009.63-2017.29,CALABRIA
20.1658,42.8424,1.1,-0.3,0.73,0.7,ROZA,4.72,2014.77-2019.49,MONTENEGRO
24.7405,41.6956,0.45,-2.4,0.15,0.18,ROZH,10.26,2007.00-2017.26,OLG
19.8749,41.7679,-0.89,0.0,0.18,0.26,RRES,9.52,2009.91-2019.43,ALBPOS
25.9494,43.8493,-0.1,-0.1,0.15,0.26,RUS1,6.49,2013.01-2019.51,BULGARIA
19.6967,44.7596,1.8,-0.1,0.21,0.19,SABA,7.81,2011.69-2019.50,AGROS
23.5605,42.3418,0.4,-2.3,0.18,0.2,SAM1,5.66,2013.85-2019.51,BULGARIA
26.7053,37.7928,-19.21,-23.02,0.23,0.27,SAMO,7.51,2012.00-2019.52,METRICA
25.4226,36.4336,-18.91,-29.92,0.45,0.26,SAN2,6.1,2012.00-2018.10,METRICA
23.2678,41.5506,0.5,-3.5,0.16,0.19,SAND,12.02,2007.49-2019.51,BULGARIA
16.6894,39.2633,2.33,3.3,1.0,1.3,SANG,4.24,2009.63-2013.87,CALABRIA
20.0099,39.874,-2.4,-0.1,0.46,0.46,SAR2,4.2,2015.23-2019.43,ALBPOS
357.2302,47.5245,0.3,0.2,0.1,0.11,SARZ,11.51,2008.00-2019.51,RGP
17.9646,40.3852,1.1,4.0,0.08,0.1,SASA,12.29,2007.22-2019.51,PUGLIA
18.4672,40.0723,0.9,3.8,0.09,0.09,SCTE,13.42,2006.09-2019.51,RING
23.0375,41.2859,0.9,-4.84,0.2,0.32,SER1,4.92,2014.59-2019.51,BULGARIA
16.6885,39.0359,1.5,3.2,0.14,0.14,SERS,13.32,2005.71-2019.03,RING
16.7008,39.2632,2.0,3.2,0.34,0.34,SGIF,3.12,2016.38-2019.50,ITALPOS
27.8967,42.9582,0.0,-0.7,0.13,0.14,SHCO,10.29,2009.22-2019.51,BULGARIA
19.4963,42.0506,-0.5,1.0,0.18,0.17,SHKO,16.81,2002.70-2019.51,ALBANIA
21.0385,42.4341,0.2,-1.4,0.32,0.22,SHTI,6.51,2013.00-2019.51,KOPOS
26.943,43.2691,-0.07,-1.0,0.15,0.17,SHUM,10.07,2009.44-2019.51,BULGARIA
27.2681,44.1209,-0.2,-0.7,0.13,0.17,SILI,8.6,2010.91-2019.51,BULGARIA
20.6594,38.1009,-5.7,-16.21,0.76,1.43,SISS,4.24,2014.21-2018.45,NOA
26.1061,35.2048,-15.51,-26.62,0.3,0.34,SITI,5.25,2014.26-2019.52,METRICA
23.7278,39.1218,-7.41,-21.44,0.31,0.37,SKO1,5.73,2010.59-2016.32,METRICA
21.4074,41.9997,1.3,-2.5,0.17,0.16,SKOP,9.06,2010.17-2019.23,MAKPOS
24.5646,38.9044,-14.41,-24.32,0.21,0.36,SKYR,6.6,2012.91-2019.51,NOA
26.3412,42.6734,0.1,-0.4,0.17,0.19,SLIV,10.07,2009.44-2019.51,BULGARIA
24.7059,41.5775,0.5,-2.3,0.19,0.19,SMOL,10.29,2009.22-2019.51,BULGARIA
23.3675,42.6502,0.3,-2.2,0.16,0.21,SOF2,8.21,2011.30-2019.51,BULGARIA
23.2685,42.6678,1.8,-2.6,0.27,0.26,SOFA,12.02,2007.49-2019.51,BULGARIA
23.3947,42.5561,0.4,-2.0,0.12,0.13,SOFI,19.5,2000.01-2019.51,EUREF
16.5473,38.6843,1.7,2.8,0.21,0.18,SOV1,9.37,2010.13-2019.50,ITALPOS
20.6736,38.7813,-2.9,-10.21,0.26,0.22,SPAN,12.11,2007.39-2019.50,NOA
23.1554,37.2674,-18.01,-26.92,0.15,0.2,SPET,10.57,2008.94-2019.52,METRICA
16.4385,43.5066,1.0,3.3,0.17,0.18,SPLT,7.91,2004.34-2012.25,SONEL
27.1821,42.346,0.18,-1.0,0.23,0.24,SRED,4.91,2014.60-2019.51,BULGARIA
18.4139,43.8679,0.8,1.2,0.12,0.15,SRJV,19.38,2000.13-2019.51,EUREF
23.7908,40.5202,0.74,-7.41,0.24,0.32,STRA,8.65,2010.82-2019.46,METRICA
16.915,39.1478,2.5,3.4,0.21,0.27,STSV,5.33,2006.87-2012.20,UNAVCO
25.6836,42.428,0.7,-1.2,0.17,0.22,STZA,8.34,2010.89-2019.23,BULGARIA
24.0145,49.8356,-0.4,0.2,0.09,0.1,SULP,17.76,2001.68-2019.44,EUREF
17.7041,40.6559,0.9,4.3,0.19,0.21,SVDN,6.26,2013.25-2019.51,NETGEO
16.4405,40.6044,0.9,4.3,0.11,0.14,SVTO,12.79,2006.64-2019.43,RING
17.2835,40.5266,0.9,4.5,0.11,0.16,TARA,8.53,2010.97-2019.50,ITALPOS
16.5489,39.8857,0.9,4.2,0.28,0.29,TBCC,3.82,2015.69-2019.50,ITALPOS
27.4075,43.7458,0.7,0.41,0.25,0.35,TERV,4.91,2014.60-2019.51,BULGARIA
20.9703,42.0094,1.6,-2.2,0.2,0.2,TETO,10.23,2009.00-2019.23,MAKPOS
23.3184,38.3166,-15.21,-22.72,0.2,0.23,THIV,8.08,2011.44-2019.52,METRICA
22.9594,40.6275,0.9,-7.0,0.17,0.22,THS1,5.6,2013.92-2019.52,METRICA
27.3937,36.3804,-12.35,-29.92,0.16,0.17,TILO,11.12,2005.50-2016.62,UNAVCO
19.8095,41.3357,-2.6,0.3,0.29,0.3,TIR2,4.21,2015.22-2019.43,ALBPOS
19.8632,41.3473,-2.0,0.6,0.23,0.15,TIRA,16.81,2002.70-2019.51,ALBANIA
28.4123,44.4573,0.0,-0.3,0.16,0.17,TIRG,7.51,2012.00-2019.51,NIEP
18.6983,42.432,0.3,2.4,0.13,0.17,TIVA,11.49,2008.00-2019.49,MONTENEGRO
22.651,42.8348,-0.09,-2.0,0.25,0.26,TRAN,5.68,2013.83-2019.51,BULGARIA
16.5269,39.8691,1.3,4.2,0.2,0.2,TRE2,6.66,2009.63-2016.29,CALABRIA
22.3694,37.5081,-17.21,-26.03,0.28,0.31,TRIP,7.84,2011.67-2019.52,METRICA
22.0727,38.3654,-15.91,-14.71,0.22,0.22,TRIZ,17.14,2002.37-2019.51,CRL
24.7119,42.8799,0.2,-0.9,0.15,0.16,TROY,12.01,2007.50-2019.51,BULGARIA
29.4507,40.7867,-4.3,-1.5,0.14,0.12,TUBI,19.51,2000.00-2019.51,EUREF
16.5928,49.2059,0.0,0.3,0.07,0.08,TUBO,17.79,2001.71-2019.50,EUREF
24.0706,35.5332,-16.61,-25.82,0.15,0.15,TUC2,14.77,2004.74-2019.51,EUREF
26.6041,44.0479,-0.3,-0.88,0.2,0.22,TUTR,4.91,2014.59-2019.51,BULGARIA
28.6661,43.9902,-0.4,0.0,0.22,0.2,TUZL,6.12,2013.39-2019.51,NIEP
18.162,39.9277,0.9,4.1,0.1,0.11,UGEN,12.14,2007.37-2019.51,PUGLIA
18.1115,40.3349,1.1,4.1,0.11,0.13,USAL,9.36,2010.15-2019.51,EUREF
16.9045,41.0164,1.2,4.1,0.1,0.12,VAL1,11.97,2007.54-2019.51,PUGLIA
22.1348,38.2337,-16.51,-25.82,0.8,0.72,VALI,3.77,2015.74-2019.51,CRL
19.8837,44.2716,0.5,0.5,0.15,0.15,VALJ,11.21,2008.28-2019.50,AGROS
22.5634,41.3183,1.0,-4.6,0.23,0.19,VALX,9.69,2009.54-2019.23,MAKPOS
23.2918,43.1884,0.1,-1.0,0.17,0.19,VAR1,12.02,2007.49-2019.51,BULGARIA
27.9227,43.2025,1.2,-0.57,0.34,0.25,VARN,10.75,2007.03-2017.77,OLG
21.7705,41.7182,1.4,-3.4,0.17,0.17,VELE,10.23,2009.00-2019.23,MAKPOS
23.9867,42.024,0.4,-2.1,0.14,0.17,VELI,12.02,2007.49-2019.51,BULGARIA
22.2044,40.5228,0.9,-7.11,0.31,0.26,VERI,4.34,2015.18-2019.52,METRICA
21.52,44.7665,0.25,-0.8,0.16,0.22,VGRA,11.21,2008.28-2019.50,AGROS
22.8523,43.994,-0.3,-1.3,0.14,0.19,VID1,5.51,2014.00-2019.51,BULGARIA
22.5045,41.8841,0.9,-2.6,0.18,0.2,VINI,9.69,2009.54-2019.23,MAKPOS
19.4832,40.471,-0.8,4.0,0.73,0.65,VLO2,3.94,2015.49-2019.43,ALBPOS
20.5886,38.1768,-6.5,-10.41,0.24,0.23,VLSM,13.39,2006.12-2019.51,NOA
22.8872,39.353,-4.3,-12.28,0.18,0.21,VOLO,9.0,2010.51-2019.51,METRICA
23.7038,40.7116,0.4,-6.5,0.29,0.29,VRAS,3.5,2015.55-2019.05,URANUS
27.9481,43.2199,-0.9,-1.1,0.29,0.39,VRNA,4.77,2014.59-2019.36,BULGARIA
5.2453,50.6899,0.2,-0.1,0.1,0.16,WARE,19.51,2000.00-2019.51,EUREF
6.6045,52.9146,-0.1,0.6,0.08,0.14,WSRT,19.5,2000.01-2019.51,EUREF
12.8789,49.1442,0.3,0.3,0.08,0.1,WTZR,19.51,2000.00-2019.51,EUREF
21.9118,38.3852,-13.61,-14.81,0.39,0.44,XILI,5.16,2014.35-2019.51,CRL
23.8538,42.0644,1.17,-1.84,0.21,0.3,YUND,3.32,2007.49-2010.82,BULGARIA
20.885,37.7792,-10.71,-16.01,0.26,0.35,ZAKY,5.92,2013.60-2019.52,METRICA
26.217,35.1149,-16.01,-28.12,0.5,0.42,ZKRO,5.13,2014.38-2019.50,NOA
